site,latitude,longitude,so2_yearly_avg_ppm,so2_yearly_avg_ppb
Lawrenceville,40.46542,-79.960757,0.00048453,0.48453
Liberty,40.323768,-79.868062,0.003328,3.328
North Braddock,40.402328,-79.860973,0.00157867,1.57867
South Fayette,40.375644,-80.169943,0.000192,0.192
Clairton,40.294341,-79.885331,0.00068259,0.68259
Avalon,40.499767,-80.071337,0.00001867,0.01867
West Mifflin,40.3629,-79.86506,0.00041638,0.41638
