site,latitude,longitude,so2_yearly_avg
Lawrenceville,40.46542,-79.960757,0.000484533
Liberty,40.323768,-79.868062,0.003328
North Braddock,40.402328,-79.860973,0.001578667
South Fayette,40.375644,-80.169943,0.000192
Clairton,40.294341,-79.885331,0.000682594
Avalon,40.499767,-80.071337,1.86667E-05
West Mifflin,40.3629,-79.86506,0.000416382
